{
    "malls": [
        {
            "name": "Mall of Arabia",
            "gmapId": "ChIJeZAyaVFXWBQRD4a_Vq4vVvg",
            "coor": { "lat": 30.0062993, "lng": 30.97348050000005 },
            "fsId": "4e64d41e483bd9a975557768"
        },
        {
            "name": "Cairo Festival City Mall",
            "gmapId": "ChIJYQYFKvE8WBQRIJRXhDyYEYE",
            "coor": { "lat": 30.0319579, "lng": 31.408473100000037 },
            "fsId": "5268f5d2498ee025c2cb6794"
        },
        {
            "name": "Downtown Mall",
            "gmapId": "ChIJ98iK8-88WBQR_RBD6r2sO2A",
            "coor": { "lat": 30.0174272, "lng": 31.412420500000053 },
            "fsId": "4d5d3a959ac9a09369027994"
        },
        {
            "name": "Americana Plaza",
            "gmapId": "ChIJ4wWsX2paWBQRGPkCKzwfhy0",
            "coor": { "lat": 30.0275716, "lng": 31.013195600000017 },
            "fsId": "d61dfe4b087a6ab444d33"
        },
        {
            "name": "Citystars Mall",
            "gmapId": "ChIJo0ecE_gVWBQRGGrouhZFdME",
            "coor": { "lat": 30.072979, "lng": 31.34604999999999 },
            "fsId": "4b853e48f964a520845231e3"
        },
        {
            "name": "Sun City Mall",
            "gmapId": "ChIJmVTb2UUWWBQRjnpeYIqBncQ",
            "coor": { "lat": 30.102616, "lng": 31.38614480000001 },
            "fsId": "e0e485498e46a6b3609b09"
        },
        {
            "name": "Mall Of Egypt",
            "gmapId": "ChIJGfFdneZQWBQRoFxwQ5okV14",
            "coor": { "lat": 29.9722532, "lng": 31.017524399999957 },
            "fsId": "dcd44498e2ebd18d8e1d2"
        },
        {
            "name": "First Mall",
            "gmapId": "ChIJnQUHZCdHWBQRDaAJ6j1aog0",
            "coor": { "lat": 30.0242101, "lng": 31.217196400000034 },
            "fsId": "4c72eb0457b6a143e8d1c6cc"
        },
        {
            "name": "Nile City Towers",
            "gmapId": "ChIJUTumGvpAWBQRdeaHrFtl1HM",
            "coor": { "lat": 30.0715475, "lng": 31.22782559999996 },
            "fsId": "4ce9181ae888f04d3e2f466b"
        },
        {
            "name": "Porto Cairo Mall",
            "gmapId": "ChIJ5_bMsF89WBQRM7-YOesuHM8",
            "coor": { "lat": 30.0644511, "lng": 31.42453690000002 },
            "fsId": "fb8a611e4b04abc0c11d4bc"
        }
    ]
}
